City_ID,City,Country,Max Temp,Current Description,Lat,Lng,Hotel Name
0,Port Alfred,ZA,68.41,clear sky,-33.59,26.89,The Halyards Hotel
1,Punta Arenas,CL,60.8,scattered clouds,-53.15,-70.92,Hotel Dreams Del Estrecho
2,Ushuaia,AR,60.8,broken clouds,-54.8,-68.3,Albatros Hotel
3,Georgetown,MY,78.8,light rain,5.41,100.34,Cititel Penang
4,Hithadhoo,MV,82.87,moderate rain,-0.6,73.08,Scoop Guest House
5,San Luis,AR,83.71,broken clouds,-33.3,-66.34,Huarpes Hotel
6,Banda Aceh,ID,78.46,overcast clouds,5.56,95.32,OYO 884 Rumoh PMI Hotel
7,Ponta Do Sol,PT,66.2,scattered clouds,32.67,-17.1,Hotel do Campo
9,Cabo San Lucas,MX,84.0,scattered clouds,22.89,-109.91,Hotel Tesoro Los Cabos
11,Salalah,OM,75.2,clear sky,17.02,54.09,HAMDAN PLAZA HOTEL
15,Roma,US,69.8,clear sky,43.21,-75.46,Wingate By Wyndham Rome
17,Kavieng,PG,83.16,scattered clouds,-2.57,150.8,Nusa Island Retreat
18,Hermanus,ZA,60.01,clear sky,-34.42,19.23,Misty Waves Boutique Hotel
19,Alofi,NU,77.0,light intensity drizzle,-19.06,-169.92,Taloa Heights
20,Puerto Ayora,EC,78.8,few clouds,-0.74,-90.35,Finch Bay Galapagos Hotel
21,Cidreira,BR,69.04,clear sky,-30.18,-50.21,Hotel Castelo
25,Labuhan,ID,78.49,clear sky,-6.88,112.21,bador sepret
26,Ancud,CL,64.4,clear sky,-41.87,-73.82,Hotel Arena Gruesa
27,Avarua,CK,75.2,overcast clouds,-21.21,-159.78,Paradise Inn
29,Chuy,UY,65.88,few clouds,-33.7,-53.46,Nuevo Hotel Plaza
30,Atuona,PF,77.86,broken clouds,-9.8,-139.03,Villa Enata
31,Birao,CF,77.2,overcast clouds,10.28,22.79,
32,East London,ZA,69.37,clear sky,-33.02,27.91,Tu Casa
34,Geraldton,AU,68.0,overcast clouds,-28.77,114.6,Broadwater Mariner Resort
36,Rio Grande,BR,71.6,broken clouds,-32.03,-52.1,Hotel Atlântico Rio Grande
39,Butaritari,KI,81.05,overcast clouds,3.07,172.79,Isles Sunset Lodge
41,Port Hedland,AU,77.0,clear sky,-20.32,118.57,The Esplanade Hotel
42,Gambela,ET,74.08,light rain,8.25,34.58,Solomon Debebe Hotel
43,Ardakan,IR,60.8,few clouds,32.31,54.02,Ardakan Hotel
46,Filadelfia,US,75.99,few clouds,39.95,-75.16,Loews Philadelphia Hotel
49,Airai,TL,62.82,overcast clouds,-8.93,125.41,Juvinal Martin
50,Kruisfontein,ZA,62.01,clear sky,-34.0,24.73,Oyster Bay House Rental
52,Vaini,TO,78.8,few clouds,-21.2,-175.2,Keleti Beach Resort
53,Richmond,US,77.0,clear sky,37.55,-77.46,Holiday Inn Express Richmond - Downtown
58,Marzuq,YE,64.65,clear sky,14.4,46.47,
59,Diego De Almagro,CL,76.84,clear sky,-26.37,-70.05,hotel luna del desierto
61,Bethel,US,73.4,clear sky,41.37,-73.41,Courtyard by Marriott Danbury
63,Albany,US,73.4,broken clouds,42.6,-73.97,
64,Cape Town,ZA,64.0,broken clouds,-33.93,18.42,Southern Sun Waterfront Cape Town
65,Mahebourg,MU,73.4,scattered clouds,-20.41,57.7,Shandrani Beachcomber Resort & Spa
67,Castro,BR,71.47,clear sky,-24.79,-50.01,CHACARA BAILLY
68,Kaman,IN,66.34,clear sky,27.65,77.27,Khandelwal Dharmashala
69,Kara,TG,79.9,scattered clouds,9.55,1.19,Hotel Ma Vision B2K
70,Rikitea,PF,71.46,scattered clouds,-23.12,-134.97,Pension Maro'i
75,Thiruvananthapuram,IN,84.2,mist,8.48,76.92,Hotel Residency Tower
76,Marsh Harbour,BS,79.18,overcast clouds,26.54,-77.06,Abaco Beach Resort
78,Bathsheba,BB,82.4,shower rain,13.22,-59.52,Atlantis Hotel
79,Arraial Do Cabo,BR,75.2,broken clouds,-22.97,-42.03,Pousada Porto Praia
80,Port Shepstone,ZA,70.03,clear sky,-30.74,30.45,My Den Beachfront B&B And Self-Catering
85,Merauke,ID,76.12,broken clouds,-8.47,140.33,
86,Nizwa,OM,67.57,few clouds,22.93,57.53,Orient Apartments
89,Singapore,SG,78.8,broken clouds,1.29,103.85,The Fullerton Hotel Singapore
92,Victoria,HK,78.01,clear sky,22.29,114.16,Mini Hotel Central
93,Lorengau,PG,81.95,few clouds,-2.02,147.27,Lorengau Harbourside Hotel
94,Kapaa,US,82.4,scattered clouds,22.08,-159.32,Sheraton Kauai Resort at Coconut Beach
95,Mar Del Plata,AR,71.6,clear sky,-38.0,-57.56,Gran Hotel Mar del Plata habitaciones
96,Faanui,PF,78.93,broken clouds,-16.48,-151.75,Bora-Bora Pearl Beach Resort & Spa
100,Tiznit,MA,63.39,few clouds,29.58,-9.5,
102,Bengkulu,ID,75.83,broken clouds,-3.8,102.27,Grage Hotel Bengkulu
103,Nassau,US,73.99,clear sky,40.75,-73.58,Hilton Garden Inn Westbury
104,Devarkonda,IN,71.08,few clouds,16.7,78.93,VANAM ANJANEYULU
107,Bredasdorp,ZA,62.6,clear sky,-34.53,20.04,Bredasdorp Country Manor
108,Camacha,PT,64.4,few clouds,33.08,-16.33,Hotel Porto Santo & Spa
109,Jamestown,US,69.01,clear sky,42.1,-79.24,Hampton Inn & Suites Jamestown
111,Hilo,US,80.01,overcast clouds,19.73,-155.09,Hilo Hawaiian Hotel
113,Harper,LR,79.66,overcast clouds,4.38,-7.72,Screensaver
114,Meulaboh,ID,76.32,overcast clouds,4.14,96.13,Kost Pria
115,Araouane,ML,84.42,clear sky,18.9,-3.53,
116,Samaipata,BO,76.23,few clouds,-18.15,-63.87,Casa - Hostal
118,Comarapa,BO,76.53,clear sky,-17.9,-64.48,
119,Bandarbeyla,SO,76.21,broken clouds,9.49,50.81,REER XOOSHLE GROUP
120,Gwanda,ZW,82.69,clear sky,-20.93,29.0,Mafax Homeways
124,Guia De Isora,ES,70.0,few clouds,28.21,-16.78,La Vista Pension
125,Las Palmas,ES,69.8,few clouds,28.42,-14.01,Casa el Relajo
126,Mayo,US,70.0,clear sky,38.89,-76.51,Resorts Resource Group International
131,Nieves,PH,77.0,moderate rain,15.33,120.95,Bill's Inn
133,Santa Fe,AR,90.0,clear sky,-31.63,-60.7,Conquistador Hotel
135,Caxito,AO,78.8,broken clouds,-8.58,13.66,
138,Amapa,BR,79.93,moderate rain,1.0,-52.0,
144,Pitimbu,BR,80.6,scattered clouds,-7.47,-34.81,Reserva do Abiaí
146,Mbanza-Ngungu,CD,70.74,overcast clouds,-5.25,14.87,Hotel Full Business
147,Lalawigan,PH,76.26,overcast clouds,11.59,125.47,Palms Apartment
148,Tokomaru,NZ,64.99,overcast clouds,-40.47,175.5,
150,Vaitape,PF,79.77,broken clouds,-16.52,-151.75,Conrad Bora Bora Nui
151,Taltal,CL,63.27,few clouds,-25.4,-70.48,Residencial Karime
152,Bangassou,CF,69.98,overcast clouds,4.74,22.82,
153,Taoudenni,ML,85.95,broken clouds,22.68,-3.98,
154,Bedesa,ET,62.92,overcast clouds,8.9,40.78,
155,Puerto Gaitan,CO,88.11,moderate rain,4.31,-72.08,Brisas del Yucao
157,Greensburg,US,71.6,clear sky,40.3,-79.54,Courtyard by Marriott Pittsburgh Greensburg
158,Nyaunglebin,MM,73.15,light rain,17.95,96.73,Royal Motel
160,Juan Aldama,MX,73.85,clear sky,24.29,-103.39,Hotel Morales
161,Mansa,IN,61.56,clear sky,29.98,75.38,STARiHOTEL Mansa
163,Imbituba,BR,75.2,few clouds,-28.24,-48.67,Praia Hotel Imbituba
164,Nishihara,JP,75.2,clear sky,26.18,127.76,Minshuku Agaihama
165,Salinopolis,BR,82.81,scattered clouds,-0.61,-47.36,Salinas Park Resort Maçarico AP101
166,Bloemfontein,ZA,71.6,clear sky,-29.12,26.21,Protea Hotel by Marriott Bloemfontein
167,Oussouye,SN,84.2,clear sky,12.48,-16.55,Auberge du Routard
168,Altamira,BR,87.8,scattered clouds,-3.2,-52.21,Requinte Hotel
170,Ocampo,MX,71.46,broken clouds,21.65,-101.5,Hotel Estancia del Vaquero
171,Carroll,US,75.2,clear sky,39.55,-77.02,Best Western Westminster Hotel
172,Alice,US,82.4,scattered clouds,27.75,-98.07,Holiday Inn Express & Suites Alice
174,Muli,MV,83.91,overcast clouds,2.92,73.57,Medhufushi Island Resort
176,Diffa,NE,74.98,clear sky,13.32,12.61,ProDAF/Diffa
179,Ashoknagar,IN,62.92,clear sky,24.57,77.72,Hotel Rajshree
180,Sarh,TD,78.8,clear sky,9.14,18.39,Hôtel des Chasses
181,Gat,IL,66.99,broken clouds,31.61,34.76,OlusHome
183,Port Elizabeth,ZA,64.4,clear sky,-33.92,25.57,39 On Nile Guest House
186,Namatanai,PG,81.68,broken clouds,-3.67,152.43,Namatanai Hotel
187,Waingapu,ID,79.68,overcast clouds,-9.66,120.26,Pondok Wisata Elim
188,Comodoro Rivadavia,AR,66.2,clear sky,-45.87,-67.5,Austral Hotel
190,Himensulan,PH,77.0,overcast clouds,10.6,124.28,Mangodlong Paradise Beach Resort
192,Acari,PE,73.04,scattered clouds,-15.43,-74.62,Hospedaje Ximens
193,Buenos Aires,AR,77.0,few clouds,-34.61,-58.38,Gran Hotel Argentino
194,Ionia,US,71.6,clear sky,42.99,-85.07,"American Inn & Suites Ionia, MI"
195,Tabou,CI,78.85,light rain,4.42,-7.35,hotêl doufoulougou
201,Tsogni,GA,76.12,light rain,-2.79,10.1,
203,Isangel,VU,80.89,clear sky,-19.55,169.27,Volcano Sea View Tree House
205,Puerto Leguizamo,CO,86.22,light rain,-0.19,-74.78,la casona de juancho
206,Kaili,ID,68.88,overcast clouds,-3.46,120.21,
208,Bambous Virieux,MU,73.4,scattered clouds,-20.34,57.76,Casa Tia Villa
209,Santa Cruz Cabralia,BR,78.8,scattered clouds,-16.28,-39.02,Portobali Hotel
210,Los Llanos De Aridane,ES,68.0,few clouds,28.66,-17.92,Valle Aridane
213,Hambantota,LK,79.14,light rain,6.12,81.12,Bungalow 63
215,Ambilobe,MG,74.35,overcast clouds,-13.2,49.05,Hôtel & Restaurant DIANA Ambilobe
217,Nantucket,US,64.4,clear sky,41.28,-70.1,Jared Coffin House
222,Shimoda,JP,60.01,overcast clouds,34.67,138.95,Shimoda Tokyu Hotel
223,San Quintin,MX,65.82,clear sky,30.48,-115.95,Old Mill Hotel
224,Innisfail,AU,78.17,few clouds,-17.53,146.03,Moondarra Motel
227,Laguna,US,62.01,clear sky,38.42,-121.42,Holiday Inn Express & Suites Elk Grove Central - Hwy 99
231,Katsuura,JP,60.8,broken clouds,35.13,140.3,Katsuura Hotel Mikazuki
232,Puerto Madero,MX,86.0,broken clouds,14.72,-92.42,Hotel La Central
233,Kaeo,NZ,71.01,scattered clouds,-35.1,173.78,Bushido Lodge
234,Cockburn Town,TC,78.8,overcast clouds,21.46,-71.14,Osprey Beach Hotel
236,Anan,JP,64.4,broken clouds,33.92,134.65,Royal Garden Hotel
237,Gamba,GA,77.11,light rain,-2.65,10.0,
238,Dingle,PH,73.4,overcast clouds,11.0,122.67,SEGAYA PROPERTY
240,Palmer,US,77.0,scattered clouds,42.16,-72.33,Wedgewood Motel
241,Itumbiara,BR,88.74,scattered clouds,-18.42,-49.22,Itumbiara Palace Hotel
242,Sao Gabriel Da Cachoeira,BR,87.8,scattered clouds,-0.13,-67.09,Alarne - Área De Lazer Do Alto Rio Negro
243,Frontera,MX,82.99,clear sky,26.93,-101.45,Fiesta Inn Monclova
244,Kahului,US,84.2,scattered clouds,20.89,-156.47,Maui Seaside Hotel
246,Sao Filipe,CV,79.7,light rain,14.9,-24.5,Tortuga B&B
247,Avera,US,80.6,scattered clouds,33.19,-82.53,
249,Auki,SB,82.31,few clouds,-8.77,160.7,Auki Motel
251,Wenling,CN,64.0,broken clouds,28.37,121.36,Hanting Express Wenling Wanchang North Road
252,Tibu,CO,86.5,broken clouds,8.64,-72.74,JOSE GREGORIO MONCADA
255,Byron Bay,AU,64.0,light rain,-28.65,153.62,Backpackers Inn on the Beach
256,Talara,PE,67.12,scattered clouds,-4.58,-81.27,Hostal Oro Negro
258,Letlhakane,BW,87.58,clear sky,-21.42,25.58,Motswedi Hotel P650
259,Coquimbo,CL,62.6,clear sky,-29.95,-71.34,Hotel San Juan
260,Cloquet,US,64.4,scattered clouds,46.72,-92.46,Super 8 by Wyndham Cloquet
261,Fayaoue,NC,76.35,clear sky,-20.65,166.53,Chez Dydyce Guesthouse
264,Atar,MR,87.04,overcast clouds,20.52,-13.05,Oumou Elghoura
267,Kalmunai,LK,78.75,moderate rain,7.42,81.82,VS Villa
268,Guerrero Negro,MX,70.47,scattered clouds,27.98,-114.06,"Casa Laguna, Bed & Breakfast"
269,Yulara,AU,71.6,scattered clouds,-25.24,130.99,Desert Gardens Hotel - Ayers Rock Resort
270,Naifaru,MV,81.77,overcast clouds,5.44,73.37,Naifaru Residence Guest House
271,Constitucion,CL,64.63,clear sky,-35.33,-72.42,Hotel Boutique Las Azucenas
274,Makokou,GA,70.74,moderate rain,0.57,12.86,WAMY RESIDENCE HOTEL
275,Luanda,AO,78.8,broken clouds,-8.84,13.23,EPIC SANA Luanda
276,Ixtapa,MX,86.0,clear sky,20.7,-105.2,Container Inn Puerto Vallarta
278,Vinukonda,IN,72.48,clear sky,16.05,79.75,VLS Residency
280,Bereda,ES,61.0,few clouds,43.27,-7.54,Pazo de Verdes
281,Saint-Philippe,RE,73.4,clear sky,-21.36,55.77,"Chambres d'hôte ""La Trinité"""
282,Hit,IQ,67.68,overcast clouds,33.64,42.83,Aboody Alhachem
284,Omboue,GA,77.77,broken clouds,-1.57,9.26,Hotel Olako
285,Trelew,AR,71.15,overcast clouds,-43.25,-65.31,Hotel Touring Club
287,Sabang,ID,80.29,overcast clouds,5.89,95.32,Hotel Citra
288,Nelson Bay,AU,63.0,scattered clouds,-32.72,152.15,Mantra Nelson Bay
289,Gwadar,PK,73.74,clear sky,25.12,62.33,Sadaf Resort
294,Turan,VN,73.4,scattered clouds,16.07,108.22,Grand Mercure Danang
295,Boa Vista,BR,78.8,moderate rain,2.82,-60.67,Aipana Plaza Hotel
297,Kloulklubed,PW,77.0,overcast clouds,7.04,134.26,Storyboard Beach Resort
298,Oia,PT,60.01,broken clouds,40.54,-8.54,Hotel Estalagem da Pateira
300,Poya,NC,77.13,scattered clouds,-21.35,165.15,
303,Pangai,TO,74.37,few clouds,-19.8,-174.35,Ha'apai Beach Resort
304,Lazaro Cardenas,MX,83.26,overcast clouds,17.96,-102.2,Collection O Hotel Quinta Antigua
306,Natal,BR,82.4,scattered clouds,-5.79,-35.21,Villa Park Hotel | Natal
307,Sao Joao Da Barra,BR,77.0,broken clouds,-21.64,-41.05,Pousada Porto De Canoas
308,Belmonte,BR,78.8,scattered clouds,-15.86,-38.88,Pousada Monte Carmelo O Pão
311,Malakal,SS,78.62,overcast clouds,9.53,31.66,Nile Palace Hotel
313,Lewistown,US,71.6,clear sky,40.6,-77.57,Quality Inn & Suites
314,Azul,AR,74.7,overcast clouds,-36.78,-59.86,Cabañas Dulcinea
315,San Patricio,US,82.4,few clouds,28.02,-97.52,"Motel 6 Sinton, TX"
317,Awjilah,LY,64.11,clear sky,29.11,21.29,
319,Vila Franca Do Campo,PT,60.8,light intensity shower rain,37.72,-25.43,Pestana Bahia Praia
321,Port Lincoln,AU,60.22,scattered clouds,-34.73,135.87,Port Lincoln Hotel
322,San Andres,CO,86.0,scattered clouds,12.58,-81.7,Hotel Arena Blanca
323,Khorramshahr,IR,78.8,clear sky,30.44,48.17,دفتر نمایندگی شرکت بازاریابان ایرانیان زمینBIZ
327,Caravelas,BR,76.48,clear sky,-17.71,-39.25,Pousada dos Navegantes
328,Kosum Phisai,TH,73.4,broken clouds,16.25,103.07,Banrao
329,Kimbe,PG,78.4,scattered clouds,-5.55,150.14,Kimbe Bay Hotel
332,Luena,AO,62.94,moderate rain,-11.78,19.92,Hotel Kandamba
333,Westport,US,71.01,clear sky,41.14,-73.36,The Westport Inn
335,Port-Gentil,GA,78.8,thunderstorm,-0.72,8.78,Fengshui Residence
336,Hamilton,US,73.99,clear sky,39.18,-84.53,Six Acres Bed & Breakfast
337,Grand-Santi,GF,87.19,few clouds,4.25,-54.38,Hotel La Villa Couacou
338,Daru,PG,76.57,overcast clouds,-9.08,143.21,New century hotel
343,Mineral Wells,US,75.99,clear sky,32.81,-98.11,The Baker Hotel and Spa
346,Takoradi,GH,79.05,light rain,4.88,-1.76,Raybow International Hotel
347,Paracuru,BR,84.2,few clouds,-3.41,-39.03,Hotel Vento Brasil
348,Necochea,AR,63.64,clear sky,-38.55,-58.74,dyd -mar Hotel
352,Conde,BR,80.6,scattered clouds,-7.26,-34.91,Pousada Beija Flor
353,Tonaya,MX,84.2,few clouds,19.78,-103.97,Mayra gallardo
354,Doha,QA,84.0,clear sky,25.29,51.53,Doha Marriott Hotel
356,Honiara,SB,73.4,few clouds,-9.43,159.95,Heritage Park Hotel
357,Ferrol,ES,60.01,light rain,43.48,-8.24,Carrís Almirante
358,Upington,ZA,75.2,few clouds,-28.45,21.26,River Place Manor
359,Khammam,IN,70.93,few clouds,17.25,80.15,Hotel Vishnu Residency
361,Buraydah,SA,68.0,broken clouds,26.33,43.98,Mövenpick Hotel Qassim
362,Eyl,SO,78.69,broken clouds,7.98,49.82,Amiin Hotel
365,Sainte-Maxime,FR,62.01,light rain,43.3,6.63,Hôtel Les Jardins De Sainte Maxime
366,Lagoa,PT,61.09,clear sky,39.05,-27.98,Casa Das Faias
368,Nouadhibou,MR,71.6,broken clouds,20.93,-17.03,El Medina
369,Carutapera,BR,82.53,clear sky,-1.2,-46.02,Lidera
370,Gulu,UG,63.03,moderate rain,2.77,32.3,ACHOLI INN
372,Nioro,GM,84.06,clear sky,13.35,-15.75,
373,Sao Paulo De Olivenca,BR,87.26,overcast clouds,-3.38,-68.87,
375,Pemba,MZ,78.01,few clouds,-12.97,40.52,Guesthouse Samotina
379,Ahipara,NZ,64.89,scattered clouds,-35.17,173.17,Ahipara Holiday Park
381,Mahibadhoo,MV,83.43,light rain,3.78,72.97,Omadhoo Inn
383,Alliance,US,71.6,few clouds,40.92,-81.11,Holiday Inn Express & Suites Alliance
384,Bubaque,GW,84.97,clear sky,11.28,-15.83,"Casa Dora, Bubaque"
385,Trairi,BR,80.51,scattered clouds,-3.28,-39.27,Pousada Field Lilies - Trairi
386,Marawi,PH,73.99,overcast clouds,8.0,124.29,Derogongan Residence
388,Manjacaze,MZ,86.88,clear sky,-24.71,33.88,Hotel Gani
392,Sohag,EG,66.2,clear sky,26.56,31.69,Civil Registry - Sohag 1
393,Olinda,BR,82.4,broken clouds,-8.01,-34.86,Hotel 5 Sóis
394,Half Moon Bay,US,61.0,clear sky,37.46,-122.43,"The Ritz-Carlton, Half Moon Bay"
395,Manavgat,TR,66.0,clear sky,36.79,31.44,Lake & River Side Hotel & Spa
396,Praia,CV,78.8,clear sky,14.92,-23.51,LT Aparthotel
397,Cap Malheureux,MU,71.01,few clouds,-19.98,57.61,Pereybere Hotel & Spa
398,Manokwari,ID,79.99,heavy intensity rain,-0.87,134.08,Swiss Belhotel Manokwari
400,Finschhafen,PG,80.1,scattered clouds,-6.6,147.87,Cossam Guest House
401,Faya,SA,62.6,clear sky,18.39,42.45,مقبرة ال مجمل
402,Pisco,PE,66.99,overcast clouds,-13.7,-76.22,Hostal San Isidro Oficial
404,Shelburne,CA,69.8,few clouds,44.08,-80.2,The Retreat at the Farm
406,Moulins,FR,61.0,overcast clouds,46.5,3.33,ibis Moulins Sud
408,Quang Ngai,VN,72.46,light rain,15.12,108.8,Central Hotel
409,Hervey Bay,AU,72.0,clear sky,-25.3,152.85,Shelly Bay Resort
411,Le Port,RE,71.6,few clouds,-20.94,55.29,Villa Maido
412,Mandvi,IN,80.26,clear sky,22.83,69.37,Jitendra Guest House
414,Benguela,AO,76.96,broken clouds,-12.58,13.41,Hotel Praia Morena
415,Namibe,AO,70.39,scattered clouds,-15.2,12.15,Hotel Chik Chik Namibe
418,Carnarvon,AU,69.8,broken clouds,-24.87,113.63,Hospitality Carnarvon
421,Jovellar,PH,75.85,overcast clouds,13.07,123.6,Tay Jose AgriTourism Park
422,Barranco De Loba,CO,85.17,light rain,8.95,-74.11,Hotel El Lirio Del Valle
423,Agadir,MA,64.4,clear sky,30.42,-9.6,Iberostar Founty Beach
424,Mandurah,AU,64.0,clear sky,-32.55,115.7,Atrium Hotel Mandurah
425,Vao,NC,73.31,broken clouds,-22.67,167.48,Hotel Kou-Bugny
427,Orem,US,64.99,overcast clouds,40.3,-111.69,La Quinta Inn & Suites by Wyndham North Orem
431,Kaseda,JP,64.0,light rain,31.42,130.32,Sun Stay Kaseda
433,Caluquembe,AO,64.65,overcast clouds,-13.78,14.68,
434,Chigorodo,CO,84.31,broken clouds,7.67,-76.68,Hotel Las Guaduas Del Darien
435,Maceio,BR,80.6,broken clouds,-9.67,-35.74,Mercure Maceio Pajucara Hotel
436,Praya,CV,78.8,clear sky,14.92,-23.51,LT Aparthotel
437,Beira,MZ,80.6,clear sky,-19.84,34.84,Beira Terrace Hotel
438,Cordele,US,78.8,scattered clouds,31.96,-83.78,Ramada by Wyndham Cordele
441,Khudumelapye,BW,84.56,clear sky,-23.88,24.75,
443,Bandarban,BD,66.33,clear sky,22.2,92.23,Hotel Plaza
444,Panguna,PG,74.08,clear sky,-6.32,155.48,
446,Emerald,AU,70.0,overcast clouds,-23.53,148.17,The Irish Village
449,Sault Sainte Marie,CA,66.2,clear sky,46.52,-84.33,Comfort Inn
450,Tete,MZ,88.66,overcast clouds,-16.16,33.59,Zambeze Paraíso Misterioso
453,Gizo,SB,83.32,scattered clouds,-8.1,156.84,Imagination Island
454,Axim,GH,78.73,light rain,4.87,-2.24,AXIM BEACH RESORT AND SPA
458,Xuddur,SO,74.07,overcast clouds,4.12,43.89,Banjanay Hotel
459,Oudtshoorn,ZA,60.8,clear sky,-33.59,22.2,Earthbound Guest House
463,Darnah,LY,67.71,light rain,32.77,22.64,زاوية الرفاعي
464,Sechura,PE,71.33,scattered clouds,-5.56,-80.82,Hospedaje Costa Bella
465,Sinnamary,GF,81.25,scattered clouds,5.38,-52.95,ALETHEIA Appartement Sinnamary
468,Paita,PE,67.33,scattered clouds,-5.09,-81.11,Hotel Náutico de Paita
469,Kuliyapitiya,LK,77.0,mist,7.47,80.04,Rest House
470,Lilongwe,MW,75.79,clear sky,-13.97,33.79,Spendwise furnished apartments.
471,Luba,GQ,77.0,few clouds,3.46,8.55,
473,Hobyo,SO,79.41,broken clouds,5.35,48.53,Osmani Hotel
474,Acurenam,GQ,68.99,moderate rain,1.03,10.65,
475,El Alto,PE,66.9,scattered clouds,-4.27,-81.21,Black Marlin Lodge & Restaurant
476,Cascavel,BR,80.64,clear sky,-24.96,-53.46,Copas Executive Hotel
477,Sawtell,AU,61.0,broken clouds,-30.38,153.1,Boambee Waters Caravan Park
479,Muros,ES,60.01,light rain,42.78,-9.06,Apartment Av. Castelao
480,Manta,EC,80.6,scattered clouds,-0.95,-80.73,Balandra Hotel
482,Porto Novo,BJ,82.4,few clouds,6.5,2.6,Tour Eiffel Hotel Benin
484,Quthing,LS,64.47,clear sky,-30.4,27.7,Mountainside Hotel
487,Venado Tuerto,AR,82.99,clear sky,-33.75,-61.97,La Bianca.
489,Nazira,IN,64.2,clear sky,26.92,94.73,Hotel Villa & Restaurant Fruition
493,Hasilpur,PK,62.76,clear sky,29.71,72.56,Dr Riaz's House 89 Fateh
494,Ballina,AU,64.0,overcast clouds,-28.87,153.57,Ramada Hotel & Suites by Wyndham Ballina Byron
495,Cassia,BR,79.18,clear sky,-20.58,-46.92,Hotel Ancora e Restaurante de Cassia MG
496,Montes Claros,BR,74.89,overcast clouds,-16.73,-43.86,ibis Montes Claros Shopping
497,La Victoria,VE,75.0,few clouds,10.22,-67.33,Hotel Hacienda El Recreo
500,Bani Walid,LY,62.24,clear sky,31.76,13.99,منزل الصابر أبوفانة
502,Tomatlan,MX,86.29,scattered clouds,19.93,-105.25,Norma franco
503,Kyabe,TD,80.76,overcast clouds,9.45,18.94,
506,Illapel,CL,76.37,clear sky,-31.63,-71.17,Hotel Londres
507,Corinto,GR,62.01,overcast clouds,37.94,22.96,Ephira Hotel
512,Saint Anthony,US,73.99,clear sky,45.02,-93.22,Holiday Inn Express Roseville-St. Paul
513,Holland,US,70.0,clear sky,42.79,-86.11,Hampton Inn Holland
515,Kirakira,SB,82.71,broken clouds,-10.45,161.92,SanBiz Lodge
517,Jodhpur,IN,69.4,clear sky,26.29,73.03,"Umaid Bhawan Palace, Jodhpur"
520,Nhulunbuy,AU,77.0,overcast clouds,-12.23,136.77,East Arnhem Real Estate
523,Palu,ID,75.54,light rain,-0.89,119.87,Hotel Santika Palu
524,Asfi,MA,66.2,scattered clouds,32.3,-9.24,Hôtel Abda
525,Cuajinicuilapa,MX,87.58,broken clouds,16.47,-98.42,Pozo S. XVI
526,Vinh,VN,70.09,clear sky,18.67,105.67,Hotels Shanghai
527,Kidal,ML,76.05,clear sky,18.44,1.41,
528,Rawson,AR,67.55,overcast clouds,-43.3,-65.1,Hotel Punta León
529,Kawalu,ID,70.09,scattered clouds,-7.38,108.21,KOSAN UNGU UNSIK
530,Chicama,PE,68.0,few clouds,-7.84,-79.15,Hospedaje Punta Cana PERU
531,Vila Velha,BR,77.0,broken clouds,-20.33,-40.29,Hotel Vitória Palace
534,Lata,PT,60.01,overcast clouds,40.16,-8.33,Casa Maquia
536,Itanhaem,BR,73.4,overcast clouds,-24.18,-46.79,Prainha Residência Artística
537,Itarema,BR,80.87,broken clouds,-2.92,-39.92,Windvillage
538,Muana,BR,82.26,overcast clouds,-1.53,-49.22,Pousada Bella do Marajó
539,Alice Town,BS,80.2,overcast clouds,25.72,-79.3,Bimini Big Game Club Resort & Marina
541,Bafq,IR,62.1,scattered clouds,31.61,55.41,Alamdar Hotel
542,Bafoulabe,ML,88.05,clear sky,13.81,-10.83,
548,Galesong,ID,79.03,overcast clouds,-5.32,119.37,Sapriadi Appy
549,Samarai,PG,81.41,light rain,-10.62,150.67,Nuli Sapi
552,Ruwi,OM,80.6,broken clouds,23.6,58.55,Al Falaj Hotel
556,Saint-Pierre,RE,73.4,clear sky,-21.34,55.48,Lindsey Hôtel
557,Ugoofaaru,MV,82.69,overcast clouds,5.67,73.0,Ungoofaaru Inn
559,Sur,OM,75.36,clear sky,22.57,59.53,Sur Plaza Hotel
560,Morehead,US,80.6,clear sky,37.27,-87.18,CCI Express Inn
561,Carbonia,IT,62.01,light rain,39.17,8.52,Lu 'Hotel
562,Saldanha,ZA,62.6,clear sky,-33.01,17.94,Blue Bay Lodge
563,Richards Bay,ZA,71.56,clear sky,-28.78,32.04,BON Hotel Waterfront Richards Bay
564,Matay,EG,63.54,clear sky,28.42,30.78,Nag Aespen
566,Kiunga,PG,71.47,overcast clouds,-6.12,141.29,Airport Lodge Kiunga
567,Shingu,JP,61.79,light rain,33.73,135.98,Shingu UI Hotel
569,Santa Isabel,BR,75.2,clear sky,-23.32,-46.22,Chácara Sombra do Altíssimo
572,Kilindoni,TZ,80.38,light rain,-7.91,39.67,Bustani B&B
573,Mundgod,IN,71.13,clear sky,14.97,75.03,HKGN TEA STALL
574,Macomb,US,72.0,clear sky,40.46,-90.67,Hampton Inn Macomb
575,Bambui,BR,82.27,scattered clouds,-20.01,-45.98,Paulinelli Palace Hotel
576,Kantang,TH,79.0,scattered clouds,7.41,99.52,Reng Ta Chai Boutique HomeStay
577,Port Blair,IN,80.96,moderate rain,11.67,92.75,Fortune Resort Bay Island
581,Manakara,MG,71.73,broken clouds,-22.13,48.02,La Residence Manakara
582,Yeppoon,AU,75.2,overcast clouds,-23.13,150.73,Villa Mar Colina
583,Loandjili,CG,80.6,broken clouds,-4.76,11.86,Résidence ARCHANGE
585,Souillac,MU,73.4,scattered clouds,-20.52,57.52,Bils' Villa
587,Punta Alta,AR,71.15,clear sky,-38.88,-62.07,Center Hotel Punta Alta
588,Kupang,ID,78.75,few clouds,-10.17,123.58,Sylvia Hotel Premier Kupang
590,Sao Felix Do Xingu,BR,81.9,few clouds,-6.64,-51.99,Apart Hotel Rio Xingu
591,Kaliua,TZ,73.42,broken clouds,-5.06,31.79,Millennium Complex
594,Bara,NG,76.91,clear sky,10.37,10.73,
595,Porangatu,BR,81.03,overcast clouds,-13.44,-49.15,Wembley Park Hotel
601,Kannur,IN,80.6,mist,11.87,75.36,Asokam Beach Resort and Ayurveda Chikitsa Kendram
605,Kavaratti,IN,82.98,clear sky,10.57,72.64,Hotels in Lakshadweep Islands
606,Russell,US,71.6,overcast clouds,32.35,-85.2,Macs
607,Santa Isabel Do Rio Negro,BR,75.88,moderate rain,-0.41,-65.02,Hotel GSA
608,Pajarito,CO,72.36,moderate rain,5.29,-72.7,Serrucho rojo
609,Bajil,YE,81.84,clear sky,15.06,43.29,فندق الصقر السياحي
611,Bosaso,SO,74.66,scattered clouds,11.28,49.18,Red Sea Hotel
612,Mier,MX,87.8,clear sky,26.43,-99.15,Hotel Don Jacinto
613,Aloleng,PH,79.83,moderate rain,16.13,119.78,Agno Umbrella Rocks
618,Naze,JP,73.4,mist,28.37,129.48,奄美ポートタワーホテル
620,Tautira,PF,84.2,few clouds,-17.73,-149.15,Pension Oaoa
621,Coihaique,CL,68.0,clear sky,-45.58,-72.07,Diego De Almagro Coyhaique
622,Karratha,AU,69.96,light rain,-20.74,116.85,ibis Styles Karratha
624,Parana,AR,90.0,clear sky,-31.73,-60.52,Howard Johnson Plaza Hotel Mayorazgo
625,Leo,BF,77.81,clear sky,11.1,-2.1,Hotel Sissilis
629,Tamiahua,MX,79.54,overcast clouds,21.27,-97.45,Mission Of The Sun Hotel
630,Motema,SL,72.18,few clouds,8.6,-11.03,Diamond Lodge
631,Mahanje,TZ,68.09,clear sky,-9.93,35.33,
632,Balurghat,IN,65.91,clear sky,25.22,88.77,"Circuit House, Balurghat"
634,State College,US,71.6,clear sky,40.79,-77.86,Hampton Inn State College
635,General Roca,AR,86.0,clear sky,-39.03,-67.58,Hotel El Recreo
638,Sumbe,AO,76.89,light rain,-11.21,13.84,Hotel Ritz Sumbe
639,Topolobampo,MX,88.0,scattered clouds,25.6,-109.05,Hotel Marina Topolobampo
640,Dolores Hidalgo,MX,80.01,broken clouds,21.16,-100.93,Hotel Hidalgo
641,Kang,BW,83.7,clear sky,-23.68,22.79,Kang Ultra Stop
642,Opelousas,US,79.0,scattered clouds,30.53,-92.08,Holiday Inn & Suites Opelousas
643,Ponta Delgada,PT,60.8,light intensity shower rain,37.73,-25.67,Vila Nova Hotel
646,Oranjestad,AW,86.0,scattered clouds,12.52,-70.03,Divi Village Golf & Beach Resort
650,Puerto Escondido,MX,87.8,few clouds,15.85,-97.07,Aldea del Bazar Hotel and Spa
652,Moree,AU,62.6,scattered clouds,-29.47,149.85,Molika Springs Motel
653,Ormara,PK,76.03,clear sky,25.21,64.64,
654,Sao Desiderio,BR,75.4,light rain,-12.36,-44.97,Pousada do Luizão
655,Rio Gallegos,AR,66.2,scattered clouds,-51.62,-69.22,Hotel Santa Cruz
658,Lanxi,CN,61.0,clear sky,29.22,119.48,Shangri-La Hotel
660,Letpadan,MM,73.08,clear sky,17.78,95.75,ကိုေဇာ္ ပငယ္ ကုန္မ်ိဳးစၤုနွင့္ၾကက္ဥေရာင္းဝယ္ေရး
661,Virginia Beach,US,73.4,few clouds,36.85,-75.98,Hilton Virginia Beach Oceanfront
664,Mersing,MY,73.4,scattered clouds,2.43,103.84,Timotel Hotel
667,Howell,US,71.6,clear sky,42.61,-83.93,Kensington Inn
668,Muroto,JP,69.84,overcast clouds,33.28,134.15,Oota Ryokan
672,San Fernando,PH,77.0,heavy intensity rain,15.03,120.69,Maharlika Hostel
674,Saint-Paul,RE,71.6,few clouds,-21.01,55.27,Boucan Canot
675,Boueni,YT,77.0,clear sky,-12.9,45.08,Auberge bouloulou( inter djasmire )
676,Manicore,BR,89.02,overcast clouds,-5.81,-61.3,Pousada da wanda
679,Himatangi,NZ,64.99,overcast clouds,-40.4,175.32,
682,Acarau,BR,81.25,broken clouds,-2.89,-40.12,castelo pizzaria
685,Poum,NC,76.82,clear sky,-20.23,164.02,Gîte kajeon
686,Peniche,PT,63.0,few clouds,39.36,-9.38,Hotel Star inn Peniche
687,Winneba,GH,82.4,few clouds,5.35,-0.62,Windy Lodge & Beach Resort
